{
  "companySummary": {
    "id": "c3646fdf-6a9d-4478-a700-aeacf3e009e5",
    "name": "List Sotheby's International Realty",
    "RFGID": "870117",
    "brandCode": "SIR",
    "isNrt": false,
    "lastUpdateOn": "2019-01-25T14:00:02.003",
    "canDoCommercialBusiness": false
  },
  "customAttributes": [
    {
      "attributeName": "BrightCoveAccountID",
      "attributeValue": "5782667323001"
    },
    {
      "attributeName": "LeadAgentDirectEmailFlag",
      "attributeValue": "0"
    },
    {
      "attributeName": "WebApproved",
      "attributeValue": "Y"
    }
  ],
  "office": [
    {
      "officeId": "a72bb816-2102-433b-b433-2954c2a9713d",
      "RFGOfficeId": "0009",
      "isOpen": true,
      "name": "List Sotheby's International Realty",
      "type": "Branch office",
      "officeAddress": {
        "streetAddress": "2\/F Musashikosugi STM Bldg., 1-403 Kosugimachi, Nakahara-ku ",
        "city": "Yokohama",
        "stateProvince": "Kanagawa",
        "stateProvinceCode": "14",
        "postalCode": "211-0063",
        "country": "Japan",
        "countryCode": "JP",
        "latitude": 35.4666900634766,
        "longitude": 139.621841430664
      },
      "phoneNumber": "81-44-711-5330",
      "emailAddress": "list-tm@list.co.jp"
    },
    {
      "officeId": "75be3f7f-e3e9-4b5b-bcff-8579dc4f78cb",
      "RFGOfficeId": "0006 ",
      "isOpen": true,
      "name": "List Sotheby's International Realty",
      "type": "Branch office",
      "officeAddress": {
        "streetAddress": "1\/F New City Minaminomachi #2, 515-1 Shinano-cho, Totsuko-ku",
        "city": "Yokohama",
        "stateProvince": "Tokyo",
        "stateProvinceCode": "13",
        "country": "Japan",
        "countryCode": "JP",
        "latitude": 40.992728,
        "longitude": -75.905729
      },
      "phoneNumber": "+81 45 827 1111",
      "websiteURL": "http:\/\/www.listsothebysrealty.co.jp\/global\/english\/"
    },
    {
      "officeId": "3ad0da26-e3d2-4e72-b1f9-86cdfe64fde7",
      "RFGOfficeId": "0007 ",
      "isOpen": true,
      "name": "List Sotheby's International Realty",
      "type": "Branch office",
      "officeAddress": {
        "streetAddress": "1\/F mioka, 1-18-5, Kamiookanishi, Konan-ku ",
        "city": "Yokohama",
        "stateProvince": "Kanagawa",
        "stateProvinceCode": "14",
        "country": "Japan",
        "countryCode": "JP",
        "latitude": 35.379680633545,
        "longitude": 139.390396118164
      },
      "phoneNumber": "+81 45 843 1111",
      "emailAddress": "list-tm@list.co.jp",
      "websiteURL": "http:\/\/www.listsothebysrealty.co.jp\/global\/english\/"
    },
    {
      "officeId": "b2ef86a5-60bf-4c71-b3ce-9bcebf0c7d8d",
      "RFGOfficeId": "0003 ",
      "isOpen": true,
      "name": "List Sotheby's International Realty",
      "type": "Branch office",
      "officeAddress": {
        "streetAddress": "List Kannai Bldg., 4-47 Oneo-cho, Naka-ku",
        "city": "Yokohama",
        "stateProvince": "Kanagawa",
        "stateProvinceCode": "14",
        "country": "Japan",
        "countryCode": "JP",
        "latitude": 35.4425506591797,
        "longitude": 139.588119506836
      },
      "phoneNumber": "+81 45 671 1195",
      "emailAddress": "list-tm@list.co.jp",
      "websiteURL": "http:\/\/www.listsothebysrealty.co.jp\/global\/english\/"
    },
    {
      "officeId": "da952758-b551-45e2-b2db-c2cdede5242b",
      "RFGOfficeId": "0001 ",
      "isOpen": true,
      "name": "List Sotheby's International Realty",
      "type": "Branch office",
      "officeAddress": {
        "streetAddress": "2\/F Hiroo Plaza, 5-6-6 Hiroo ",
        "city": "Shibuya-ku",
        "stateProvince": "Tokyo",
        "stateProvinceCode": "13",
        "postalCode": "105-6217",
        "country": "Japan",
        "countryCode": "JP",
        "latitude": 0,
        "longitude": 0
      },
      "phoneNumber": "+81 3 3449 3355",
      "emailAddress": "list-tm@list.co.jp",
      "websiteURL": "http:\/\/global.listsothebysrealty.co.jp\/eng?utm_source=sir.hiroo"
    },
    {
      "officeId": "bdfed303-fdb9-4181-a931-cf8f309cc219",
      "RFGOfficeId": "0002 ",
      "isOpen": true,
      "name": "List Sotheby's International Realty",
      "type": "Branch office",
      "officeAddress": {
        "streetAddress": "5\/F Shopping Town Aitai, 1-1-3, Nakagawachuo, Tsuzuki-ku",
        "city": "Yokohama",
        "stateProvince": "Kanagawa",
        "stateProvinceCode": "14",
        "country": "Japan",
        "countryCode": "JP",
        "latitude": 35.379680633545,
        "longitude": 139.390396118164
      },
      "phoneNumber": "+81 45 913 8111",
      "emailAddress": "list-tm@list.co.jp",
      "websiteURL": "http:\/\/www.listsothebysrealty.co.jp\/global\/english\/"
    },
    {
      "officeId": "c61acfe2-2f49-46bd-a595-d28fe431c372",
      "RFGOfficeId": "0008 ",
      "isOpen": true,
      "name": "List Sotheby's International Realty",
      "type": "Main office",
      "officeAddress": {
        "streetAddress": "21\/F Morinaga Plaza Building, 5-33-1 Shiba",
        "city": "Minato-ku",
        "stateProvince": "Tokyo",
        "stateProvinceCode": "13",
        "postalCode": "108-0014",
        "country": "Japan",
        "countryCode": "JP",
        "latitude": 35.6759796142578,
        "longitude": 139.76350402832
      },
      "phoneNumber": "+81-3-3538-5808",
      "emailAddress": "list-tm@list.co.jp",
      "websiteURL": "http:\/\/global.listsothebysrealty.co.jp\/eng?utm_source=sir.tamachi"
    },
    {
      "officeId": "9cc182bf-5862-4839-97e2-de7bbf76c4ea",
      "RFGOfficeId": "0005 ",
      "isOpen": true,
      "name": "List Sotheby's International Realty",
      "type": "Branch office",
      "officeAddress": {
        "streetAddress": "2-14-10 Takashima Nishi ku",
        "city": "Yokohama",
        "stateProvince": "Kanagawa",
        "stateProvinceCode": "14",
        "country": "Japan",
        "countryCode": "JP",
        "latitude": 35.4666900634766,
        "longitude": 139.621841430664
      },
      "phoneNumber": "+81 45 444 1000",
      "emailAddress": "list-tm@list.co.jp",
      "websiteURL": "http:\/\/www.listsothebysrealty.co.jp\/global\/english\/"
    },
    {
      "officeId": "f8470646-19c4-4c4a-9230-eba01445e6dc",
      "RFGOfficeId": "0004 ",
      "isOpen": true,
      "name": "List Sotheby's International Realty",
      "type": "Branch office",
      "officeAddress": {
        "streetAddress": "1\/F Shonanchuo Dai-2 Bldg. 1-3-1",
        "city": "Tsujido Fujisawa",
        "stateProvince": "Kanagawa",
        "stateProvinceCode": "14",
        "country": "Japan",
        "countryCode": "JP",
        "latitude": 18.090999603272,
        "longitude": -66.181671142578
      },
      "phoneNumber": "+81 466 35 1000",
      "emailAddress": "list-tm@list.co.jp",
      "websiteURL": "http:\/\/www.listsothebysrealty.co.jp\/global\/english\/"
    },
    {
      "officeId": "7cde946a-9da9-4c10-9511-f77a7ae2bc49",
      "RFGOfficeId": "0010",
      "isOpen": true,
      "name": "List Sotheby's International Realty",
      "type": "Branch office",
      "officeAddress": {
        "streetAddress": "5F Meidi-Ya Ginza Bldg., 2-6-7 Ginza ",
        "city": "Chuo-ku",
        "stateProvince": "Tokyo",
        "stateProvinceCode": "13",
        "postalCode": "104-0061",
        "country": "Japan",
        "countryCode": "JP",
        "latitude": 35.6699981689453,
        "longitude": 139.770004272461
      },
      "phoneNumber": "+81 3 3538 5808",
      "emailAddress": "list-tm@list.co.jp",
      "websiteURL": "http:\/\/global.listsothebysrealty.co.jp\/eng"
    }
  ]
}
